{
  "id": "istanbul_sultanahmet",
  "name": "Istanbul: Byzantine & Ottoman Treasures",
  "city": "Istanbul",
  "category": "historical",
  "version": 1,
  "stops": [
    {
      "id": "stop_hippodrome",
      "name": "Hippodrome of Constantinople",
      "latitude": 41.006306,
      "longitude": 28.975841,
      "order": 0,
      "shortDescription": "Once the sporting and social center of the Byzantine capital, hosting spectacular chariot races. Today, the square still features ancient monuments like the 3,500-year-old Egyptian Obelisk of Theodosius."
    },
    {
      "id": "stop_blue_mosque",
      "name": "Blue Mosque (Sultan Ahmed Mosque)",
      "latitude": 41.005422,
      "longitude": 28.976815,
      "order": 1,
      "shortDescription": "An early 17th-century masterpiece with six towering minarets and cascading domes. It earns its nickname from the more than 20,000 handmade Iznik ceramic tiles that intensely decorate its interior walls."
    },
    {
      "id": "stop_basilica_cistern",
      "name": "Basilica Cistern",
      "latitude": 41.008381,
      "longitude": 28.977873,
      "order": 2,
      "shortDescription": "A massive, subterranean water reservoir built by Emperor Justinian I in the 6th century. Supported by 336 marble columns, it features two mysterious, ancient Medusa heads used as pillar bases."
    },
    {
      "id": "stop_hagia_sophia",
      "name": "Hagia Sophia",
      "latitude": 41.008583,
      "longitude": 28.979917,
      "order": 3,
      "shortDescription": "Originally built as a colossal Christian cathedral in 537 AD, later an imperial mosque, then a museum, and now a mosque again. Its massive dome was considered an architectural miracle that changed the history of architecture."
    },
    {
      "id": "stop_topkapi_palace",
      "name": "Topkapi Palace",
      "latitude": 41.0115,
      "longitude": 28.983375,
      "order": 4,
      "shortDescription": "The opulent primary residence and administrative headquarters of the Ottoman sultans for nearly 400 years. Its sprawling courtyards house sacred Islamic relics, imperial armory, and the secretive Harem."
    },
    {
      "id": "stop_gulhane_park",
      "name": "Gülhane Park",
      "latitude": 41.013056,
      "longitude": 28.981111,
      "order": 5,
      "shortDescription": "Istanbul's oldest and most expansive public park, originally part of the outer gardens of Topkapi Palace. In spring, the pathways burst into vibrant color with thousands of blooming tulips."
    },
    {
      "id": "stop_archaeology_museums",
      "name": "Istanbul Archaeology Museums",
      "latitude": 41.0116,
      "longitude": 28.9813,
      "order": 6,
      "shortDescription": "Located just off the outer courtyard of Topkapi Palace, this museum complex houses an immense collection of ancient artifacts, including the intricately carved Alexander Sarcophagus."
    },
    {
      "id": "stop_sirkeci_station",
      "name": "Sirkeci Railway Station",
      "latitude": 41.0152,
      "longitude": 28.9771,
      "order": 7,
      "shortDescription": "The historic, beautifully preserved 19th-century terminal station of the legendary Orient Express, which brought wealthy travelers from Paris to the edge of the Ottoman Empire."
    },
    {
      "id": "stop_eminonu_square",
      "name": "Eminönü Square",
      "latitude": 41.0163,
      "longitude": 28.9723,
      "order": 8,
      "shortDescription": "The chaotic, vibrant waterfront square acting as Istanbul's central transport hub. You can grab a famous 'balık ekmek' (fish sandwich) from the colorful boats rocking in the Golden Horn."
    },
    {
      "id": "stop_yeni_cami",
      "name": "Yeni Cami (New Mosque)",
      "latitude": 41.0168,
      "longitude": 28.9715,
      "order": 9,
      "shortDescription": "Dominating the Eminönü waterfront, this massive 17th-century imperial mosque is a stunning example of classic Ottoman architecture, constantly bustling with worshippers and pigeons."
    },
    {
      "id": "stop_spice_bazaar",
      "name": "Spice Bazaar (Mısır Çarşısı)",
      "latitude": 41.0165,
      "longitude": 28.9705,
      "order": 10,
      "shortDescription": "A feast for the senses since 1660. Walking through its L-shaped corridors exposes you to the rich, intoxicating aromas of saffron, sumac, sweet Turkish delight, and roasting coffee."
    },
    {
      "id": "stop_rustem_pasha_mosque",
      "name": "Rüstem Pasha Mosque",
      "latitude": 41.0175,
      "longitude": 28.9691,
      "order": 11,
      "shortDescription": "A small, hidden gem designed by the master architect Sinan. It is uniquely and entirely covered, both inside and out, with some of the finest Iznik floral tiles ever produced."
    },
    {
      "id": "stop_galata_bridge",
      "name": "Galata Bridge",
      "latitude": 41.0200,
      "longitude": 28.9733,
      "order": 12,
      "shortDescription": "A lively, two-tiered bridge crossing the Golden Horn. The upper level is packed with local fishermen casting their lines, while the lower level is lined with fresh seafood restaurants."
    },
    {
      "id": "stop_galata_tower",
      "name": "Galata Tower",
      "latitude": 41.0256,
      "longitude": 28.9741,
      "order": 13,
      "shortDescription": "A towering stone cylinder originally built by the Genoese in 1348. Dominating the Beyoğlu skyline, its viewing balcony offers an unforgettable, sweeping 360-degree panorama of Istanbul."
    }
  ]
}
