{
  "id": "nyc_lower_manhattan",
  "name": "New York City: Lower Manhattan Origins",
  "city": "New York City",
  "category": "historical",
  "version": 1,
  "stops": [
    {
      "id": "stop_charging_bull",
      "name": "Charging Bull",
      "latitude": 40.705576,
      "longitude": -74.013421,
      "order": 0,
      "shortDescription": "A massive bronze sculpture created by Arturo Di Modica that represents aggressive financial optimism and prosperity. It was originally dropped outside the Stock Exchange illegally in the middle of the night in 1989."
    },
    {
      "id": "stop_new_york_stock_exchange",
      "name": "New York Stock Exchange",
      "latitude": 40.706877,
      "longitude": -74.011265,
      "order": 1,
      "shortDescription": "The world's largest stock exchange by market capitalization of its listed companies. The building's majestic neoclassical facade, with six Corinthian columns, was designed by George B. Post and opened in 1903."
    },
    {
      "id": "stop_federal_hall",
      "name": "Federal Hall",
      "latitude": 40.707379,
      "longitude": -74.010419,
      "order": 2,
      "shortDescription": "The site where George Washington took the oath of office as the first President of the United States in 1789. The original building was demolished in 1812, and the current Greek Revival structure was built as a Customs House."
    },
    {
      "id": "stop_trinity_church",
      "name": "Trinity Church",
      "latitude": 40.708107,
      "longitude": -74.012217,
      "order": 3,
      "shortDescription": "An iconic historic parish church at the intersection of Wall Street and Broadway. Its adjacent graveyard is the final resting place of Alexander Hamilton and other early American prominent figures."
    },
    {
      "id": "stop_9_11_memorial",
      "name": "9/11 Memorial",
      "latitude": 40.711488,
      "longitude": -74.013143,
      "order": 4,
      "shortDescription": "A solemn tribute to the past, featuring two massive reflecting pools set within the footprints of the original Twin Towers. The names of every person who died in the 2001 and 1993 attacks are inscribed into the bronze panels."
    },
    {
      "id": "stop_oculus",
      "name": "The Oculus",
      "latitude": 40.711586,
      "longitude": -74.011352,
      "order": 5,
      "shortDescription": "A striking transportation hub and shopping mall designed by Santiago Calatrava to resemble a dove leaving a child's hands. Its stark white, ribbed structure provides a stark contrast to the surrounding glass skyscrapers."
    },
    {
      "id": "stop_one_world_observatory",
      "name": "One World Observatory",
      "latitude": 40.712999,
      "longitude": -74.013145,
      "order": 6,
      "shortDescription": "Located atop One World Trade Center, the tallest building in the Western Hemisphere at a symbolic 1,776 feet. It offers unparalleled views of the New York harbor, the skyline, and beyond."
    },
    {
      "id": "stop_st_pauls_chapel",
      "name": "St. Paul's Chapel",
      "latitude": 40.7116,
      "longitude": -74.0093,
      "order": 7,
      "shortDescription": "The oldest surviving church building in Manhattan, built in 1766. George Washington prayed here on the day of his inauguration, and it miraculously survived the collapse of the nearby Twin Towers."
    },
    {
      "id": "stop_woolworth_building",
      "name": "Woolworth Building",
      "latitude": 40.7123,
      "longitude": -74.0084,
      "order": 8,
      "shortDescription": "Once the tallest building in the world (1913-1930), this stunning neo-Gothic skyscraper is often called the 'Cathedral of Commerce' due to its ornate terra-cotta facade and soaring lobby."
    },
    {
      "id": "stop_city_hall_park",
      "name": "City Hall Park",
      "latitude": 40.7127,
      "longitude": -74.0060,
      "order": 9,
      "shortDescription": "A historic green space surrounding New York City Hall. It has been a site for protests, celebrations, and public gatherings since the American Revolution."
    },
    {
      "id": "stop_brooklyn_bridge_entrance",
      "name": "Brooklyn Bridge (Manhattan Entrance)",
      "latitude": 40.7126,
      "longitude": -74.0048,
      "order": 10,
      "shortDescription": "The pedestrian entrance to one of the oldest roadway bridges in the United States. Completed in 1883, its neo-Gothic stone arches and steel suspension cables are an engineering marvel."
    },
    {
      "id": "stop_south_street_seaport",
      "name": "South Street Seaport",
      "latitude": 40.7068,
      "longitude": -74.0035,
      "order": 11,
      "shortDescription": "A designated historic district featuring some of the oldest architecture in downtown Manhattan, cobblestone streets, and a collection of historic sailing ships docked along the East River."
    },
    {
      "id": "stop_pier_17",
      "name": "Pier 17",
      "latitude": 40.7060,
      "longitude": -74.0019,
      "order": 12,
      "shortDescription": "A modern entertainment and dining destination located right on the water at the Seaport, offering fantastic views of the Brooklyn Bridge and the East River."
    },
    {
      "id": "stop_stone_street",
      "name": "Stone Street Historic District",
      "latitude": 40.7042,
      "longitude": -74.0104,
      "order": 13,
      "shortDescription": "One of New York's oldest streets, famously the first to be paved with cobblestones in 1658. Today, it is a lively pedestrian-only alley lined with historic taverns and outdoor dining."
    },
    {
      "id": "stop_fraunces_tavern",
      "name": "Fraunces Tavern",
      "latitude": 40.7033,
      "longitude": -74.0114,
      "order": 14,
      "shortDescription": "A historic tavern and museum claiming to be the oldest surviving building in Manhattan. It played a prominent role in the Revolution and was where George Washington bid farewell to his officers."
    }
  ]
}
