{
  "id": "rome_ancient",
  "name": "Rome: The Ancient Empire",
  "city": "Rome",
  "category": "historical",
  "version": 1,
  "stops": [
    {
      "id": "stop_colosseum",
      "name": "Colosseum",
      "latitude": 41.890251,
      "longitude": 12.492373,
      "order": 0,
      "shortDescription": "The largest ancient amphitheater ever built, completed in 80 AD under Emperor Titus. It could hold an estimated 50,000 to 80,000 spectators for gladiatorial contests and public spectacles."
    },
    {
      "id": "stop_arch_of_constantine",
      "name": "Arch of Constantine",
      "latitude": 41.889988,
      "longitude": 12.490802,
      "order": 1,
      "shortDescription": "A colossal triumphal arch erected in 315 AD to commemorate Constantine I's victory at the Battle of Milvian Bridge. It is notable for heavily recycling decorative materials from older imperial monuments."
    },
    {
      "id": "stop_palatine_hill",
      "name": "Palatine Hill",
      "latitude": 41.888334,
      "longitude": 12.485833,
      "order": 2,
      "shortDescription": "The centermost of the Seven Hills of Rome and one of the most ancient parts of the city. According to Roman mythology, this is the very spot where the city was founded by Romulus and Remus."
    },
    {
      "id": "stop_roman_forum",
      "name": "Roman Forum",
      "latitude": 41.892461,
      "longitude": 12.485325,
      "order": 3,
      "shortDescription": "The ruined but sprawling heart of ancient Rome, filled with temples, basilicas, and public spaces. For centuries, it was the center of day-to-day life in the Roman Republic and Empire."
    },
    {
      "id": "stop_piazza_del_campidoglio",
      "name": "Piazza del Campidoglio",
      "latitude": 41.893322,
      "longitude": 12.482834,
      "order": 4,
      "shortDescription": "A magnificent hilltop square redesigned by Michelangelo in the 16th century. It features a striking geometric paving pattern and a replica bronze equestrian statue of Marcus Aurelius."
    },
    {
      "id": "stop_capitoline_museums",
      "name": "Capitoline Museums",
      "latitude": 41.893041,
      "longitude": 12.482613,
      "order": 5,
      "shortDescription": "Considered the world's oldest public museums, tracing their history back to 1471. They house incredible classical sculptures, including the famous bronze 'Capitoline Wolf' nursing Romulus and Remus."
    },
    {
      "id": "stop_trajans_column",
      "name": "Trajan's Column",
      "latitude": 41.8958,
      "longitude": 12.4843,
      "order": 6,
      "shortDescription": "A Roman triumphal column that commemorates Emperor Trajan's victory in the Dacian Wars. It is famous for its intricate, spiraling bas-relief epic narrative."
    },
    {
      "id": "stop_altare_della_patria",
      "name": "Altare della Patria",
      "latitude": 41.8958,
      "longitude": 12.4826,
      "order": 7,
      "shortDescription": "A massive, gleaming white marble monument built in honor of Victor Emmanuel II, the first king of a unified Italy. Locals often affectionately or jokingly call it 'The Typewriter'."
    },
    {
      "id": "stop_largo_di_torre_argentina",
      "name": "Largo di Torre Argentina",
      "latitude": 41.8956,
      "longitude": 12.4768,
      "order": 8,
      "shortDescription": "A sunken square containing the ruins of four Roman Republican temples. Famously, it is the exact site where Julius Caesar was assassinated in 44 BC. It now hosts a beloved cat sanctuary."
    },
    {
      "id": "stop_piazza_della_minerva",
      "name": "Piazza della Minerva",
      "latitude": 41.8979,
      "longitude": 12.4776,
      "order": 9,
      "shortDescription": "A charming piazza just behind the Pantheon. It features an adorable marble elephant statue designed by Bernini, which is carrying an ancient Egyptian obelisk on its back."
    },
    {
      "id": "stop_pantheon",
      "name": "Pantheon",
      "latitude": 41.8986,
      "longitude": 12.4769,
      "order": 10,
      "shortDescription": "A former Roman temple, now a church, renowned for its massive unreinforced concrete dome and central oculus. It remains one of the best-preserved ancient Roman buildings in the world."
    },
    {
      "id": "stop_piazza_navona",
      "name": "Piazza Navona",
      "latitude": 41.8992,
      "longitude": 12.4731,
      "order": 11,
      "shortDescription": "Built directly on the site of the ancient Stadium of Domitian, this elegant, oval-shaped piazza features magnificent fountains, including Bernini's spectacular Fountain of the Four Rivers."
    },
    {
      "id": "stop_trevi_fountain",
      "name": "Trevi Fountain",
      "latitude": 41.9009,
      "longitude": 12.4833,
      "order": 12,
      "shortDescription": "The largest Baroque fountain in the city and arguably the most famous fountain in the world. Tradition says tossing a coin over your left shoulder ensures your return to Rome."
    },
    {
      "id": "stop_spanish_steps",
      "name": "Spanish Steps",
      "latitude": 41.9057,
      "longitude": 12.4823,
      "order": 13,
      "shortDescription": "A monumental, sweeping stairway of 135 steps connecting Piazza di Spagna to the Trinità dei Monti church. It has served as a classic meeting place and an iconic Roman landmark for centuries."
    }
  ]
}
